[
    {
      "email": "lionel.messi@email",
      "id": 1,
      "phone": "12345678",
      "imageName": "lionel-messi",
      "name": "Lionel Messi",
      "coordinates": {
          "latitude": 10.729410965174186,
          "longitude": 106.69522548892152
      }
    },
    {
      "email": "cristiano.ronaldo@email.com",
      "id": 2,
      "phone": "12345678",
      "imageName": "cristiano-ronaldo",
      "name": "Cristiano Ronaldo",
      "coordinates": {
          "latitude": 10.758256325746386,
          "longitude": 106.67228491141948
      }
    },
    {
      "email": "neymar@email",
      "id": 3,
      "phone": "0853453563",
      "imageName": "neymar",
      "name": "Neymar Jr.",
      "coordinates": {
          "latitude": 10.786710386116287,
          "longitude": 106.73818415444727
      }
    },
    {
      "email": "kylian.mbappe@email",
      "id": 4,
      "phone": "0674868566",
      "imageName": "kylian-mbappe",
      "name": "Kylian Mbappé",
      "coordinates": {
          "latitude": 10.79437079611712,
          "longitude": 106.80394039521534
      }
    },
    {
      "email": "manuel-neuer@email.com",
      "id": 5,
      "phone": "0962456754",
      "imageName": "manuel-neuer",
      "name": "Manuel Neuer",
      "coordinates": {
          "latitude": 10.870169083568735,
          "longitude": 106.76307939055084
      }
    },
    {
      "email": "mohamed.salah@email.com",
      "id": 6,
      "phone": "0934634534",
      "imageName": "mohamed-salah",
      "name": "Mohamed Salah",
      "coordinates": {
          "latitude": 10.949713377874208,
          "longitude": 106.8479555990988
      }
    },
    {
      "email": "paulo.dybala@email.com",
      "id": 7,
      "phone": "095463745",
      "imageName": "paulo-dybala",
      "name": "Paulo Dybala",
      "coordinates": {
          "latitude": 11.04578475693659,
          "longitude": 106.58373092288061
      }
    },
    {
      "email": "robert.lewandowski@email",
      "id": 8,
      "phone": "094354456",
      "imageName": "robert-lewandowski",
      "name": "Robert Lewandowski",
      "coordinates": {
          "latitude": 10.803071448238558,
          "longitude": 106.64427589071033
      }
    },
    {
      "email": "kevin.debruyne@email",
      "id": 9,
      "phone": "0922342355",
      "imageName": "kevin-de-bruyne",
      "name": "Kevin De Bruyne",
      "coordinates": {
          "latitude": 10.781771420238698,
          "longitude": 106.6306334151885
      }
    },
    {
      "email": "virgil.van.Dijk@email.com",
      "id": 10,
      "phone": "09453346323",
      "imageName": "virgil-van-dijk",
      "name": "Virgil van Dijk",
      "coordinates": {
          "latitude": 10.745642963019284,
          "longitude": 106.57460623743862
      }
    },
    {
      "email": "sergio.ramos@email.com",
      "id": 11,
      "phone": "0925342356",
      "imageName": "sergio-ramos",
      "name": "Sergio Ramos",
      "coordinates": {
          "latitude": 10.642054789728482,
          "longitude": 106.43875526875854
      }
    },
    {
      "email": "sadio.mane@email.com",
      "id": 12,
      "phone": "0952534523",
      "imageName": "sadio-mane",
      "name": "Sadio Mané",
      "coordinates": {
          "latitude": 10.23862895243684,
          "longitude": 106.3776103458168
      }
    },
    {
      "email": "toni.kroos@email.com",
      "id": 13,
      "phone": "095534534",
      "imageName": "toni-kroos",
      "name": "Toni Kroos",
      "coordinates": {
          "latitude": 9.991073220047838,
          "longitude": 106.0169751879182
      }
    },
    {
      "email": "alisson.becker@email.com",
      "id": 14,
      "phone": "0922345123",
      "imageName": "alisson-becker",
      "name": "Alisson Becker",
      "coordinates": {
          "latitude": 11.940952669293084,
          "longitude": 108.45964507946036
      }
    }
]
